{
  "categories": {
    "default": {
      "name": "No Icon",
      "icon": "icon-[mdi--help]",
      "color": "gray-500"
    },
    "canteen": {
      "name": "canteen",
      "icon": "icon-[mdi--restaurant]",
      "color": "orange-500"
    },
    "drinking-spot": {
      "name": "drinking spot",
      "icon": "icon-[game-icons--tap]",
      "color": "blue-300"
    },
    "office": {
      "name": "office",
      "icon": "icon-[guidance--office]",
      "color": "blue-600"
    },
    "amphi": {
      "name": "Amphi",
      "color": "purple-400",
      "icon": "icon-[fluent-emoji-high-contrast--post-office]"
    },
    "market-center": {
      "name": "Market center",
      "icon": "icon-[solar--shop-linear]",
      "color": "pink-500"
    },
    "toilet": {
      "name": "Toilets",
      "icon": "icon-[emojione-monotone--toilet]",
      "color": "gray-400"
    },
    "health-center": {
      "name": "health center",
      "icon": "icon-[lucide--hospital]",
      "color": "teal-400"
    },
    "library": {
      "name": "library",
      "icon": "icon-[famicons--library-sharp]",
      "color": "green-500"
    },
    "printing-spot": {
      "name": "printing spot",
      "icon": "icon-[el--print]",
      "color": "indigo-500"
    },
    "lab": {
      "name": "lab",
      "icon": "icon-[entypo--lab-flask]",
      "color": "blue-500"
    },
    "classroom": {
      "name": "Classroom",
      "icon": "icon-[game-icons--teacher]",
      "color": "yellow-500"
    },
    "classroom-block": {
      "name": "classroom block",
      "icon": "icon-[game-icons--teacher]",
      "color": "yellow-500"
    },
    "faculty": {
      "name": "faculty",
      "icon": "icon-[ph--building-apartment-light]",
      "color": "purple-600"
    },
    "administrative-block": {
      "name": "Administrative block",
      "icon": "icon-[icomoon-free--office]",
      "color": "gray-600"
    },
    "sport-pitch": {
      "name": "Sport pitch",
      "icon": "icon-[material-symbols--sports-and-outdoors]",
      "color": "green-600"
    },
    "ub-hostel": {
      "name": "UB hostel",
      "icon": "icon-[ic--baseline-holiday-village]",
      "color": "brown-500"
    },
    "shuttle": {
      "name": "shuttle",
      "icon": "icon-[pepicons-pencil--taxi]",
      "color": "teal-300"
    }
  },
  "locations": [
    {
      "name": "U Block",
      "block": "U Block",
      "category": "classroom-block",
      "coordinate": {
        "lat": 4.1495824,
        "lng": 9.2835103
      }
    },
    {
      "name": "U Block D",
      "block": "U Block",
      "category": "classroom",
      "coordinate": {
        "lat": 4.15011,
        "lng": 9.283467
      }
    },
    {
      "name": "U Block E",
      "block": "U Block",
      "category": "classroom",
      "coordinate": {
        "lat": 4.149989,
        "lng": 9.283579
      }
    },
    {
      "name": "U Block F",
      "block": "U Block",
      "category": "classroom",
      "coordinate": {
        "lat": 4.149834,
        "lng": 9.283445
      }
    },
    {
      "name": "U Block G",
      "block": "U Block",
      "category": "classroom",
      "coordinate": {
        "lat": 4.149864,
        "lng": 9.283442
      }
    },
    {
      "name": "Toilet",
      "block": "U Block",
      "category": "toilet",
      "coordinate": {
        "lat": 4.1495855,
        "lng": 9.2836906
      }
    },
    {
      "name": "G Block",
      "block": "G Block",
      "category": "classroom-block",
      "coordinate": {
        "lat": 4.1503049,
        "lng": 9.2836853
      }
    },
    {
      "name": "G119",
      "block": "G Block",
      "category": "classroom",
      "coordinate": {
        "lat": 4.150505,
        "lng": 9.283428
      }
    },
    {
      "name": "G115",
      "block": "G Block",
      "category": "classroom",
      "coordinate": {
        "lat": 4.150274,
        "lng": 9.28336
      }
    },
    {
      "name": "Medicals Laboratory",
      "block": "",
      "category": "health-center",
      "coordinate": {
        "lat": 4.150865,
        "lng": 9.2837526
      }
    },
    {
      "name": "Department of Environmental Science, geology and physics lab",
      "block": "",
      "category": "lab",
      "coordinate": {
        "lat": 4.150865,
        "lng": 9.2837526
      }
    },
    {
      "name": "Ublock Printing",
      "block": "U Block",
      "category": "printing-spot",
      "coordinate": {
        "lat": 4.15037,
        "lng": 9.283744
      }
    },
    {
      "name": "UB girls Hostel",
      "block": "UB Resident",
      "category": "ub-hostel",
      "coordinate": {
        "lat": 4.1581375,
        "lng": 9.2896719
      }
    },
    {
      "name": "faculty of science",
      "block": "Faculty of Science",
      "category": "faculty",
      "coordinate": {
        "lat": 4.1509,
        "lng": 9.284911
      }
    },
    {
      "name": "Unesco building",
      "block": "Unesco Building",
      "category": "faculty",
      "coordinate": {
        "lat": 4.148682,
        "lng": 9.28465
      }
    },
    {
      "name": "library",
      "block": "Library",
      "category": "library",
      "coordinate": {
        "lat": 4.149002,
        "lng": 9.285277
      }
    },
    {
      "name": "IT Center",
      "block": "",
      "category": "administrative-block",
      "coordinate": {
        "lat": 4.147864,
        "lng": 9.288665
      }
    },
    {
      "name": "Faculty of Social and Management Sciences",
      "block": "administrative",
      "category": "faculty",
      "coordinate": {
        "lat": 4.14583,
        "lng": 9.286545
      }
    },
    {
      "name": "ASTI",
      "block": "ASTI",
      "category": "faculty",
      "coordinate": {
        "lat": 4.147494,
        "lng": 9.285575
      }
    },
    {
      "name": "Cultural Village",
      "block": "",
      "category": "faculty",
      "coordinate": {
        "lat": 4.146713,
        "lng": 9.285943
      }
    },
    {
      "name": "FHS",
      "block": "",
      "category": "faculty",
      "coordinate": {
        "lat": 4.155533,
        "lng": 9.296054
      }
    },
    {
      "name": "Faculty Of Engineering and Technology",
      "block": "FET Building",
      "category": "faculty",
      "coordinate": {
        "lat": 4.143779,
        "lng": 9.28876
      }
    },
    {
      "name": "UB Central Administration parking",
      "block": "",
      "category": "administrative-block",
      "coordinate": {
        "lat": 4.148985,
        "lng": 9.288521
      }
    },
    {
      "name": "Central Administration",
      "block": "",
      "category": "administrative-block",
      "coordinate": {
        "lat": 4.149024,
        "lng": 9.287876
      }
    },
    {
      "name": "Department of environmental science, geology and physics lab",
      "block": "Department of environmental science",
      "category": "classroom-block",
      "coordinate": {
        "lat": 4.150495,
        "lng": 9.284061
      }
    },
    {
      "name": "Biological Science",
      "block": "Department of science",
      "category": "classroom",
      "coordinate": {
        "lat": 4.150976,
        "lng": 9.284543
      }
    },
    {
      "name": "lunch counter ",
      "block": "U Block",
      "category": "canteen",
      "coordinate": {
        "lat": 4.150555,
        "lng": 9.284256
      }
    },
    {
      "name": "Ublock printing ",
      "block": "Ublock",
      "category": "printing-spot",
      "coordinate": {
        "lat": 4.15037,
        "lng": 9.283744
      }
    },
    {
      "name": "Football field ",
      "block": "",
      "category": "sport-pitch",
      "coordinate": {
        "lat": 4.149569,
        "lng": 9.289442
      }
    },
    {
      "name": "PEDAGOB",
      "block": "PEDAGOB",
      "category": "classroom-block",
      "coordinate": {
        "lat": 4.1467738,
        "lng": 9.2916879
      }
    },
    {
      "name": "UB Shuttle",
      "block": "",
      "category": "shuttle",
      "coordinate": {
        "lat": 4.153826,
        "lng": 9.290765
      }
    },
    {
      "name": "ASTI Toilet",
      "block": "ASTI",
      "category": "toilet",
      "coordinate": {
        "lat": 4.147734,
        "lng": 9.285517
      }
    },
    {
      "name": "Classroom Block I",
      "block": "",
      "category": "classroom-block",
      "coordinate": {
        "lat": 4.1447109,
        "lng": 9.2864494
      }
    },
    {
      "name": "Classroom Block II",
      "block": "",
      "category": "classroom-block",
      "coordinate": {
        "lat": 4.1444584,
        "lng": 9.2821085
      }
    },
    {
      "name": "Collage of technology faculty",
      "block": "",
      "category": "office",
      "coordinate": {
        "lat": 4.1479089,
        "lng": 9.282354
      }
    },
    {
      "name": "Mathematics (D024)",
      "block": "Faculty of science",
      "category": "office",
      "coordinate": {
        "lat": 4.1509,
        "lng": 9.284911
      }
    },
    {
      "name": "Faculty of Arts Vise Dean(R307-upstairs)",
      "block": "Faculty of Arts",
      "category": "office",
      "coordinate": {
        "lat": 4.149291,
        "lng": 9.286006
      }
    },
    {
      "name": "Faculty of science vise Dean(D019)",
      "block": "Faculty of science",
      "category": "office",
      "coordinate": {
        "lat": 4.1509,
        "lng": 9.284911
      }
    },
    {
      "name": "Faculty of law Dean (R011)",
      "block": "Faculty of law and political science",
      "category": "office",
      "coordinate": {
        "lat": 4.146952,
        "lng": 9.286538
      }
    },
    {
      "name": "Faculty of Social and Management Sciences Dean(R034)",
      "block": "administrative",
      "category": "office",
      "coordinate": {
        "lat": 4.14583,
        "lng": 9.286545
      }
    },
    {
      "name": "Head Of Department of promotion in Bilingualism (R303A)",
      "block": "ASTI",
      "category": "office",
      "coordinate": {
        "lat": 4.147494,
        "lng": 9.285575
      }
    },
    {
      "name": "Admission and Record Services (2002C)",
      "block": "ASTI",
      "category": "office",
      "coordinate": {
        "lat": 4.147494,
        "lng": 9.285575
      }
    },
    {
      "name": "Conference Room (2002C)",
      "block": "ASTI",
      "category": "office",
      "coordinate": {
        "lat": 4.147494,
        "lng": 9.285575
      }
    },
    {
      "name": "Deputy Director (311C)",
      "block": "ASTI",
      "category": "office",
      "coordinate": {
        "lat": 4.147494,
        "lng": 9.285575
      }
    },
    {
      "name": "Head Of Department of Interpretation (R304A)",
      "block": "ASTI",
      "category": "office",
      "coordinate": {
        "lat": 4.147494,
        "lng": 9.285575
      }
    },
    {
      "name": "Head of department of Computer Engineering (R014)",
      "block": "College of Technology, UNESCO Building",
      "category": "office",
      "coordinate": {
        "lat": 4.149131,
        "lng": 9.285238
      }
    },
    {
      "name": "Director of COT (R006)",
      "block": "College of Technology, UNESCO Building",
      "category": "office",
      "coordinate": {
        "lat": 4.149131,
        "lng": 9.285238
      }
    },
    {
      "name": "Head of Department of Electrical Engineering (R013)",
      "block": "College of Technology, UNESCO Building",
      "category": "office",
      "coordinate": {
        "lat": 4.148682,
        "lng": 9.28465
      }
    },
    {
      "name": "Head of Department of Mechanical Engineering (R009)",
      "block": "Faculty Of Engineering and Technology, UNESCO Building",
      "category": "office",
      "coordinate": {
        "lat": 4.148682,
        "lng": 9.28465
      }
    }
  ]
}
